{"entries":[{"audios":[],"creationDate":"2019-05-29T19:44:11Z","location":{"address":"711 Capstone Dr, Tuscaloosa, AL 35487, USA","administrativeArea":"Alabama","country":"United States","latitude":33.2120617,"localityName":"Tuscaloosa","longitude":-87.5460061,"placeName":"711 Capstone Drive","region":{"center":{"latitude":33.2120617,"longitude":-87.5460061}}},"photos":[{"exposureBiasValue":0.0,"height":0,"identifier":"1A77D996C7624C0694329990F0349B80","md5":"a9ac9c3afaf258fe228717a082edbd07","orderInEntry":0,"type":"jpg","width":0}],"starred":false,"tags":["SocialFreedom","VIGILANCEELITE","deadmau5"],"text":"Top text \n\n![](dayone-moment://1A77D996C7624C0694329990F0349B80)\n\nLower text","timeZone":"America/Chicago","uuid":"EF7F5CBC01A1483F89ECA7EDA77B2C39","weather":{"conditionsDescription":"Clear","pressureMB":1012.42,"relativeHumidity":0.0,"temperatureCelsius":33.0,"visibilityKM":16.09,"weatherCode":"clear","weatherServiceName":"Forecast.io","windBearing":307.0,"windChillCelsius":0,"windSpeedKPH":4.51}},{"audios":[],"creationDate":"2019-05-25T18:51:43Z","location":{"address":"510 State Rd S-42-2215, Roebuck, SC 29376, USA","administrativeArea":"South Carolina","country":"United States","latitude":34.8294287,"localityName":"Roebuck","longitude":-81.9106667,"placeName":"510 State Road S-42-2215","region":{"center":{"latitude":34.8294287,"longitude":-81.9106667}}},"photos":[{"exposureBiasValue":0.0,"height":0,"identifier":"4745F8FE21F24480B16E2D8208977B2E","md5":"bfbbd722f4547c72cc78bfb2470689fd","orderInEntry":0,"type":"jpg","width":0}],"starred":false,"tags":[],"text":"A picture.\n\n![](dayone-moment://4745F8FE21F24480B16E2D8208977B2E)\n\n","timeZone":"America/New_York","uuid":"AA630614D25E4F72ADD68B4FDE9C91C6","weather":{"conditionsDescription":"Clear","pressureMB":1019.2,"relativeHumidity":0.0,"temperatureCelsius":33.0,"visibilityKM":16.09,"weatherCode":"clear","weatherServiceName":"Forecast.io","windBearing":278.0,"windChillCelsius":0,"windSpeedKPH":1.31}},{"audios":[],"creationDate":"2019-05-25T18:49:34Z","location":{"address":"Japan, 〒103-0004 Tōkyō-to, Chuo City, Higashinihonbashi, 3-chōme−4−１８ 中村","administrativeArea":"Tōkyō-to","country":"Japan","latitude":35.690911267131845,"localityName":"Chuo City","longitude":139.78287655860186,"placeName":"中村 3-chōme","region":{"center":{"latitude":35.690911267131845,"longitude":139.78287655860186}}},"photos":[],"starred":true,"tags":[],"text":"woah. tokyo.","timeZone":"America/New_York","uuid":"14F974B9C33741D5AA59073C22D9F9C8","weather":{"conditionsDescription":"Clear","pressureMB":1018.26,"relativeHumidity":0.0,"temperatureCelsius":21.0,"visibilityKM":11.3,"weatherCode":"clear-night","weatherServiceName":"Forecast.io","windBearing":191.0,"windChillCelsius":0,"windSpeedKPH":1.98}},{"audios":[],"creationDate":"2019-05-25T18:48:13Z","location":{"address":"280 E Colorado Blvd, Pasadena, CA 91101, USA","administrativeArea":"California","country":"United States","latitude":34.14568929893389,"localityName":"Pasadena","longitude":-118.14581997692586,"placeName":"280 East Colorado Boulevard","region":{"center":{"latitude":34.14568929893389,"longitude":-118.14581997692586}}},"photos":[],"starred":false,"tags":[],"text":"and then immediately teleported to LA.","timeZone":"America/New_York","uuid":"0E9749EC40544416BF84AF289DF3E1A1","weather":{"conditionsDescription":"Mostly Cloudy","pressureMB":1012.6,"relativeHumidity":0.0,"temperatureCelsius":18.0,"visibilityKM":16.0,"weatherCode":"partly-cloudy","weatherServiceName":"Forecast.io","windBearing":193.0,"windChillCelsius":0,"windSpeedKPH":1.69}},{"audios":[],"creationDate":"2019-05-25T18:46:22Z","location":{"address":"152 E 65th St, New York, NY 10065, USA","administrativeArea":"New York","country":"United States","latitude":40.76536040616305,"localityName":"New York","longitude":-73.96456997841597,"placeName":"152 East 65th Street","region":{"center":{"latitude":40.76536040616305,"longitude":-73.96456997841597}}},"photos":[],"starred":false,"tags":[],"text":"I went to NYC.","timeZone":"America/New_York","uuid":"BA2D20C9947B4FD09D9350D3AC5A70A1","weather":{"conditionsDescription":"Mostly Cloudy","pressureMB":1021.98,"relativeHumidity":0.0,"temperatureCelsius":21.0,"visibilityKM":16.09,"weatherCode":"partly-cloudy","weatherServiceName":"Forecast.io","windBearing":166.0,"windChillCelsius":0,"windSpeedKPH":4.06}}],"metadata":{"version":"1.2"}}